{"locations":[["delhi",{"id":"delhi","name":"Delhi","district":"NCR","coordinates":{"lat":28.6139,"lng":77.209}}],["mumbai",{"id":"mumbai","name":"Mumbai","district":"Maharashtra","coordinates":{"lat":19.076,"lng":72.8777}}],["bangalore",{"id":"bangalore","name":"Bangalore","district":"Karnataka","coordinates":{"lat":12.9716,"lng":77.5946}}],["chennai",{"id":"chennai","name":"Chennai","district":"Tamil Nadu","coordinates":{"lat":13.0827,"lng":80.2707}}],["kolkata",{"id":"kolkata","name":"Kolkata","district":"West Bengal","coordinates":{"lat":22.5726,"lng":88.3639}}],["hyderabad",{"id":"hyderabad","name":"Hyderabad","district":"Telangana","coordinates":{"lat":17.385,"lng":78.4867}}],["pune",{"id":"pune","name":"Pune","district":"Maharashtra","coordinates":{"lat":18.5204,"lng":73.8567}}],["ahmedabad",{"id":"ahmedabad","name":"Ahmedabad","district":"Gujarat","coordinates":{"lat":23.0225,"lng":72.5714}}]]}